@Olympus/-1000/-1000
$GPGGA,010433.0,1732.4843,S,14953.8507,W,1,,,37.5,M,,M,,*5B
$GPRMC,010433.0,A,1732.4843,S,14953.8507,W,,,140521,,*06
$GPGGA,010443.0,1732.4857,S,14953.8551,W,1,,,-1.5,M,,M,,*42
$GPRMC,010443.0,A,1732.4857,S,14953.8551,W,,,140521,,*07
$GPGGA,010512.0,1732.4856,S,14953.8551,W,1,,,-3.4,M,,M,,*45
$GPRMC,010512.0,A,1732.4856,S,14953.8551,W,,,140521,,*03
$GPGGA,010542.0,1732.4856,S,14953.8551,W,1,,,-2.5,M,,M,,*40
$GPRMC,010542.0,A,1732.4856,S,14953.8551,W,,,140521,,*06
$GPGGA,010612.0,1732.4830,S,14953.8535,W,1,,,-7.2,M,,M,,*46
$GPRMC,010612.0,A,1732.4830,S,14953.8535,W,,,140521,,*02
$GPGGA,010642.0,1732.4830,S,14953.8535,W,1,,,-6.2,M,,M,,*42
$GPRMC,010642.0,A,1732.4830,S,14953.8535,W,,,140521,,*07
$GPGGA,010712.0,1732.4835,S,14953.8536,W,1,,,-3.0,M,,M,,*47
$GPRMC,010712.0,A,1732.4835,S,14953.8536,W,,,140521,,*05
$GPGGA,012326.1,1732.4842,S,14953.8454,W,1,,,-64.5,M,,M,,*76
$GPRMC,012326.1,A,1732.4842,S,14953.8454,W,,,140521,,*00
$GPGGA,012356.2,1732.4893,S,14953.8551,W,1,,,-53.8,M,,M,,*73
$GPRMC,012356.2,A,1732.4893,S,14953.8551,W,,,140521,,*0C
$GPGGA,012426.1,1732.4867,S,14953.8554,W,1,,,-26.1,M,,M,,*75
$GPRMC,012426.1,A,1732.4867,S,14953.8554,W,,,140521,,*01
$GPGGA,012456.1,1732.4844,S,14953.8562,W,1,,,-17.2,M,,M,,*77
$GPRMC,012456.1,A,1732.4844,S,14953.8562,W,,,140521,,*02
$GPGGA,012526.1,1732.4845,S,14953.8561,W,1,,,-4.8,M,,M,,*4B
$GPRMC,012526.1,A,1732.4845,S,14953.8561,W,,,140521,,*06
$GPGGA,013702.1,1732.4924,S,14953.8763,W,1,,,-59.7,M,,M,,*7F
$GPRMC,013702.1,A,1732.4924,S,14953.8763,W,,,140521,,*05
$GPGGA,013732.0,1732.4915,S,14953.8644,W,1,,,-7.4,M,,M,,*43
$GPRMC,013732.0,A,1732.4915,S,14953.8644,W,,,140521,,*01
$GPGGA,013802.0,1732.4824,S,14953.8553,W,1,,,7.0,M,,M,,*60
$GPRMC,013802.0,A,1732.4824,S,14953.8553,W,,,140521,,*0B
$GPGGA,013832.0,1732.4823,S,14953.8541,W,1,,,8.1,M,,M,,*69
$GPRMC,013832.0,A,1732.4823,S,14953.8541,W,,,140521,,*0C
$GPGGA,013902.0,1732.4823,S,14953.8541,W,1,,,8.6,M,,M,,*6C
$GPRMC,013902.0,A,1732.4823,S,14953.8541,W,,,140521,,*0E
$GPGGA,013932.0,1732.4823,S,14953.8541,W,1,,,8.5,M,,M,,*6C
$GPRMC,013932.0,A,1732.4823,S,14953.8541,W,,,140521,,*0D
$GPGGA,014002.0,1732.4822,S,14953.8541,W,1,,,8.7,M,,M,,*62
$GPRMC,014002.0,A,1732.4822,S,14953.8541,W,,,140521,,*01
$GPGGA,014032.0,1732.4798,S,14953.8520,W,1,,,1.5,M,,M,,*63
$GPRMC,014032.0,A,1732.4798,S,14953.8520,W,,,140521,,*0B
$GPGGA,014102.0,1732.4778,S,14953.8500,W,1,,,0.7,M,,M,,*6E
$GPRMC,014102.0,A,1732.4778,S,14953.8500,W,,,140521,,*05
$GPGGA,014132.0,1732.4814,S,14953.8533,W,1,,,0.4,M,,M,,*6B
$GPRMC,014132.0,A,1732.4814,S,14953.8533,W,,,140521,,*03
$GPGGA,014202.0,1732.4813,S,14953.8531,W,1,,,5.0,M,,M,,*6F
$GPRMC,014202.0,A,1732.4813,S,14953.8531,W,,,140521,,*06
$GPGGA,014232.0,1732.4766,S,14953.8509,W,1,,,-0.2,M,,M,,*40
$GPRMC,014232.0,A,1732.4766,S,14953.8509,W,,,140521,,*03
$GPGGA,014302.0,1732.4767,S,14953.8509,W,1,,,-0.9,M,,M,,*48
$GPRMC,014302.0,A,1732.4767,S,14953.8509,W,,,140521,,*00
$GPGGA,014332.0,1732.4795,S,14953.8517,W,1,,,-1.2,M,,M,,*43
$GPRMC,014332.0,A,1732.4795,S,14953.8517,W,,,140521,,*01
$GPGGA,014402.0,1732.4815,S,14953.8539,W,1,,,6.2,M,,M,,*66
$GPRMC,014402.0,A,1732.4815,S,14953.8539,W,,,140521,,*0E
$GPGGA,014432.0,1732.4816,S,14953.8538,W,1,,,8.5,M,,M,,*6E
$GPRMC,014432.0,A,1732.4816,S,14953.8538,W,,,140521,,*0F
$GPGGA,014502.0,1732.4815,S,14953.8537,W,1,,,8.2,M,,M,,*67
$GPRMC,014502.0,A,1732.4815,S,14953.8537,W,,,140521,,*01
$GPGGA,014532.0,1732.4811,S,14953.8537,W,1,,,6.6,M,,M,,*6A
$GPRMC,014532.0,A,1732.4811,S,14953.8537,W,,,140521,,*06
$GPGGA,014602.0,1732.4818,S,14953.8542,W,1,,,6.0,M,,M,,*67
$GPRMC,014602.0,A,1732.4818,S,14953.8542,W,,,140521,,*0D
$GPGGA,014632.0,1732.4821,S,14953.8538,W,1,,,5.2,M,,M,,*62
$GPRMC,014632.0,A,1732.4821,S,14953.8538,W,,,140521,,*09
$GPGGA,014702.0,1732.4821,S,14953.8538,W,1,,,4.6,M,,M,,*65
$GPRMC,014702.0,A,1732.4821,S,14953.8538,W,,,140521,,*0B
$GPGGA,014732.0,1732.4821,S,14953.8538,W,1,,,3.5,M,,M,,*62
$GPRMC,014732.0,A,1732.4821,S,14953.8538,W,,,140521,,*08
$GPGGA,014802.0,1732.4821,S,14953.8538,W,1,,,2.7,M,,M,,*6D
$GPRMC,014802.0,A,1732.4821,S,14953.8538,W,,,140521,,*04
$GPGGA,014832.0,1732.4819,S,14953.8538,W,1,,,2.6,M,,M,,*64
$GPRMC,014832.0,A,1732.4819,S,14953.8538,W,,,140521,,*0C
$GPGGA,014902.0,1732.4808,S,14953.8548,W,1,,,1.8,M,,M,,*6C
$GPRMC,014902.0,A,1732.4808,S,14953.8548,W,,,140521,,*09
$GPGGA,014932.0,1732.4808,S,14953.8547,W,1,,,2.4,M,,M,,*6F
$GPRMC,014932.0,A,1732.4808,S,14953.8547,W,,,140521,,*05
$GPGGA,015002.0,1732.4808,S,14953.8547,W,1,,,2.9,M,,M,,*69
$GPRMC,015002.0,A,1732.4808,S,14953.8547,W,,,140521,,*0E
$GPGGA,015032.0,1732.4806,S,14953.8549,W,1,,,4.4,M,,M,,*61
$GPRMC,015032.0,A,1732.4806,S,14953.8549,W,,,140521,,*0D
$GPGGA,015102.0,1732.4806,S,14953.8549,W,1,,,5.6,M,,M,,*60
$GPRMC,015102.0,A,1732.4806,S,14953.8549,W,,,140521,,*0F
$GPGGA,015132.0,1732.4814,S,14953.8556,W,1,,,3.4,M,,M,,*6A
$GPRMC,015132.0,A,1732.4814,S,14953.8556,W,,,140521,,*01
$GPGGA,015202.0,1732.4814,S,14953.8545,W,1,,,2.0,M,,M,,*6D
$GPRMC,015202.0,A,1732.4814,S,14953.8545,W,,,140521,,*03
$GPGGA,015232.0,1732.4798,S,14953.8535,W,1,,,4.5,M,,M,,*61
$GPRMC,015232.0,A,1732.4798,S,14953.8535,W,,,140521,,*0C
$GPGGA,015302.0,1732.4800,S,14953.8535,W,1,,,5.9,M,,M,,*60
$GPRMC,015302.0,A,1732.4800,S,14953.8535,W,,,140521,,*00
$GPGGA,015332.0,1732.4803,S,14953.8536,W,1,,,6.0,M,,M,,*69
$GPRMC,015332.0,A,1732.4803,S,14953.8536,W,,,140521,,*03
$GPGGA,015402.0,1732.4806,S,14953.8537,W,1,,,5.5,M,,M,,*6F
$GPRMC,015402.0,A,1732.4806,S,14953.8537,W,,,140521,,*03
$GPGGA,015432.0,1732.4819,S,14953.8526,W,1,,,4.8,M,,M,,*6E
$GPRMC,015432.0,A,1732.4819,S,14953.8526,W,,,140521,,*0E
$GPGGA,015502.0,1732.4827,S,14953.8537,W,1,,,2.2,M,,M,,*6D
$GPRMC,015502.0,A,1732.4827,S,14953.8537,W,,,140521,,*01
$GPGGA,015532.0,1732.4820,S,14953.8531,W,1,,,2.9,M,,M,,*64
$GPRMC,015532.0,A,1732.4820,S,14953.8531,W,,,140521,,*03
$GPGGA,015602.0,1732.4826,S,14953.8534,W,1,,,3.5,M,,M,,*6A
$GPRMC,015602.0,A,1732.4826,S,14953.8534,W,,,140521,,*00
$GPGGA,015632.0,1732.4826,S,14953.8532,W,1,,,5.8,M,,M,,*64
$GPRMC,015632.0,A,1732.4826,S,14953.8532,W,,,140521,,*05
$GPGGA,015702.0,1732.4826,S,14953.8536,W,1,,,4.3,M,,M,,*68
$GPRMC,015702.0,A,1732.4826,S,14953.8536,W,,,140521,,*03
$GPGGA,015732.0,1732.4835,S,14953.8537,W,1,,,4.3,M,,M,,*68
$GPRMC,015732.0,A,1732.4835,S,14953.8537,W,,,140521,,*03
$GPGGA,024902.9,1732.4840,S,14953.8520,W,1,,,3.3,M,,M,,*6D
$GPRMC,024902.9,A,1732.4840,S,14953.8520,W,,,140521,,*01
$GPGGA,024932.0,1732.4836,S,14953.8545,W,1,,,-0.3,M,,M,,*4B
$GPRMC,024932.0,A,1732.4836,S,14953.8545,W,,,140521,,*09
$GPGGA,025001.0,1732.4835,S,14953.8545,W,1,,,0.5,M,,M,,*6B
$GPRMC,025001.0,A,1732.4835,S,14953.8545,W,,,140521,,*02
$GPGGA,025031.0,1732.4835,S,14953.8544,W,1,,,5.8,M,,M,,*61
$GPRMC,025031.0,A,1732.4835,S,14953.8544,W,,,140521,,*00
$GPGGA,025101.0,1732.4833,S,14953.8544,W,1,,,6.1,M,,M,,*6F
$GPRMC,025101.0,A,1732.4833,S,14953.8544,W,,,140521,,*04
$GPGGA,025131.0,1732.4832,S,14953.8544,W,1,,,5.2,M,,M,,*6D
$GPRMC,025131.0,A,1732.4832,S,14953.8544,W,,,140521,,*06
